timestamp,voltage_v,voltage_filtered_v,current_a,current_filtered_a,discharged_mah,remaining,scale,load,ram_usage,warning
32308201184,23.821001,23.832287,0.16119999,0.23109762,2478.4924,0.8689719,1.0181164,0.6369256,0.7894236,0
32308703643,23.6816,23.805693,0.4464,0.26107603,2478.5286,0.8722525,1.0176548,0.7411695,0.85059816,0
32309206808,23.5832,23.73293,0.868,0.53041583,2478.626,0.8576389,1.0197141,0.7411695,0.85059816,0
32309709975,23.534,23.65016,0.9176,0.8482894,2478.7825,0.83743244,1.0225755,0.71930337,0.85059816,0
32310213186,23.5668,23.614992,0.9176,0.8794269,2478.9077,0.82997185,1.023636,0.71930337,0.85059816,0
32310704387,23.575,23.591702,0.95479995,0.90871716,2479.035,0.8249698,1.0243483,0.7063308,0.85059816,0
32311207575,23.5914,23.577673,0.992,0.9215266,2479.164,0.8221064,1.0247564,0.7063308,0.85059816,0
32311710717,23.5668,23.569748,0.9176,0.9259392,2479.2952,0.8206149,1.0249692,0.70494187,0.848491,0
32312213938,23.5258,23.563347,0.94240004,0.9263792,2479.4243,0.8192716,1.0251609,0.70494187,0.848491,0
32312717504,23.5668,23.556929,0.9176,0.93724984,2479.5564,0.8177181,1.0253826,0.7005666,0.848491,0
32313219230,23.575,23.555698,0.93,0.9343411,2479.6868,0.8176022,1.0253992,0.7005666,0.848491,0
32313723341,23.5094,23.55569,0.95479995,0.936489,2479.8186,0.8177677,1.0253756,0.7090113,0.8487629,0
32314226165,23.5258,23.534872,1.1035999,1.0076568,2479.9636,0.813407,1.0259986,0.7090113,0.8487629,0
32314717612,23.2552,23.490934,1.5624,1.1524132,2480.13,0.80531126,1.0271572,0.71309745,0.8487629,0
32315220821,23.6078,23.459845,1.4136,1.301687,2480.3296,0.80227715,1.0275922,0.71309745,0.8487629,0
32315723980,22.796,23.415955,1.7112,1.3630451,2480.5234,0.7942582,1.0287434,0.7124374,0.8487629,0
32316226789,23.165,23.253563,2.5171998,2.0294073,2480.871,0.75840193,1.0339227,0.7124374,0.8487629,0
32317724860,21.2954,22.497229,5.4807997,4.5251102,2482.6519,0.58913857,1.0590931,0.6866014,0.85059816,0
32318227978,21.935,22.16607,7.006,5.668168,2483.5488,0.50985247,1.0713099,0.6866014,0.85059816,0
32318731214,20.295,21.922663,6.9688,6.3456035,2484.506,0.45288807,1.0802627,0.7112992,0.85059816,0
32319233153,20.787,21.531147,8.5064,7.515168,2485.6616,0.35503203,1.0959964,0.7112992,0.85059816,0
32319736380,20.459,21.216673,9.61,8.30837,2486.897,0.27696377,1.1088812,0.70102274,0.85059816,0
32320239642,20.0982,20.862846,10.6268,9.447256,2488.3232,0.18843275,1.1238643,0.70102274,0.85059816,0
32320742812,19.6554,20.463871,11.9288,10.672014,2489.9255,0.08690745,1.1415528,0.71069527,0.85059816,1
32321233992,19.155201,20.02836,13.4044,12.039085,2491.6958,0,1.1571429,0.71069527,0.85059816,3
32321737172,19.0978,19.69916,13.33,12.834589,2493.5723,0,1.1571429,0.7072085,0.848491,3
32322240296,18.6222,19.367603,14.694,13.651595,2495.5457,0,1.1571429,0.7072085,0.848491,3
32322743609,18.1056,18.941236,16.2812,14.888684,2497.7373,0,1.1571429,0.7086282,0.848491,3
32323246831,18.1138,18.659569,16.12,15.618603,2499.9973,0,1.1571429,0.7086282,0.848491,3
32323749971,18.0728,18.461466,16.182,15.935821,2502.2554,0,1.1571429,0.7155106,0.8487629,3
32324253549,18.138401,18.328997,16.2068,16.117569,2504.5278,0,1.1571429,0.7155106,0.8487629,3
32324756384,18.1712,18.24011,16.293598,16.184195,2506.7935,0,1.1571429,0.7072566,0.8487629,3
32325259132,18.1712,18.193722,16.070398,16.177076,2509.0535,0,1.1571429,0.7072566,0.8487629,3
32325761886,17.712,18.130781,17.3352,16.20618,2511.3098,0,1.1571429,0.71307415,0.85297716,3
32326253247,18.286,18.130592,15.81,16.322218,2513.5662,0,1.1571429,0.71307415,0.85297716,3
32326756711,17.958,18.195332,15.549599,15.908676,2515.749,0,1.1571429,0.6995744,0.8554921,3
32327259481,18.0318,18.183184,16.1696,15.902299,2517.9639,0,1.1571429,0.6995744,0.8554921,3
32327762766,17.8924,18.12768,16.3804,16.153622,2520.2473,0,1.1571429,0.7079202,0.8554921,3
32328254580,17.8678,18.091576,16.355598,16.292606,2522.489,0,1.1571429,0.7079202,0.8554921,3
32328757438,17.999,18.062517,16.4424,16.347498,2524.7769,0,1.1571429,0.70366895,0.8554921,3
32329260307,17.8186,17.99861,16.938398,16.551455,2527.106,0,1.1571429,0.70366895,0.8554921,3
32329763595,17.7284,17.90314,17.4592,16.929392,2529.5073,0,1.1571429,0.71127045,0.8554921,3
32330267210,17.753,17.818123,17.496399,17.19815,2531.942,0,1.1571429,0.71127045,0.8554921,3
32330769114,17.7612,17.770395,17.3972,17.332642,2534.3723,0,1.1571429,0.70419323,0.853385,3
32331272413,17.4742,17.669916,18.066801,17.557808,2536.844,0,1.1571429,0.70419323,0.853385,3
32331776349,19.6144,17.568615,17.794,18.117851,2539.4338,0,1.1571429,0.7098988,0.853385,3
32332278734,17.097,17.469706,18.228,18.219725,2541.9763,0,1.1571429,0.7098988,0.853385,3
32332769801,17.507,17.477343,17.856,18.08298,2544.4336,0,1.1571429,0.7182708,0.85542417,3
32333273155,17.2118,17.420752,18.525599,18.206972,2546.9832,0,1.1571429,0.7182708,0.85542417,3
32333776334,17.0724,17.358793,18.7488,18.43024,2549.5808,0,1.1571429,0.7067049,0.85542417,3
32334280021,17.097,17.270588,19.1456,18.754416,2552.237,0,1.1571429,0.7067049,0.85542417,3
32334770667,17.0642,17.243319,18.8852,18.822672,2554.8125,0,1.1571429,0.71288794,0.85542417,3
32335273925,17.2528,17.187527,19.1332,19.003742,2557.4854,0,1.1571429,0.71288794,0.85542417,3
32335777180,17.753,17.2603,17.36,18.795315,2560.108,0,1.1571429,0.70838773,0.8572594,3
32336280811,17.2446,17.339912,18.3272,18.217735,2562.5854,0,1.1571429,0.70838773,0.8572594,3
32336783380,17.4004,17.326662,18.4884,18.371027,2565.1653,0,1.1571429,0.71805626,0.8572594,3
32337287148,17.7694,17.433294,17.3228,17.96711,2567.6565,0,1.1571429,0.71805626,0.8572594,3
32337789134,17.4578,17.442076,18.1288,17.911,2570.1416,0,1.1571429,0.7116244,0.8572594,3
32338292443,17.7038,17.51608,17.347599,17.66968,2572.5999,0,1.1571429,0.7116244,0.8572594,3
32338795630,16.9822,17.365522,20.038399,18.212893,2575.1787,0,1.1571429,0.71579653,0.8572594,3
32339298618,17.507,17.297178,18.166,18.738695,2577.8728,0,1.1571429,0.71579653,0.8572594,3
32339789968,17.3184,17.35482,18.228,18.295523,2580.321,0,1.1571429,0.71908563,0.85515225,3
32340297134,17.015,17.293743,18.848,18.568789,2582.9602,0,1.1571429,0.71908563,0.85515225,3
32340800266,17.2856,17.295017,18.3768,18.538694,2585.5527,0,1.1571429,0.71180975,0.85515225,3
32341303788,17.1708,17.289694,18.8232,18.533197,2588.1406,0,1.1571429,0.71180975,0.85515225,3
32341794729,16.9166,17.20973,19.381199,18.90598,2590.7537,0,1.1571429,0.71222675,0.85542417,3
32342298495,17.0478,17.1292,19.5176,19.255201,2593.4812,0,1.1571429,0.71222675,0.85542417,3
32342801251,17.507,17.094534,18.947199,19.326132,2596.1924,0,1.1571429,0.7125311,0.85542417,3
32343304312,17.5972,17.152681,18.8728,19.02285,2598.8152,0,1.1571429,0.7125311,0.85542417,3
32343802769,17.015,17.118193,19.4308,19.149284,2601.4739,0,1.1571429,0.7183515,0.85542417,3
32344305983,17.4414,17.200706,17.8188,18.795784,2604.088,0,1.1571429,0.7183515,0.85542417,3
32344809086,16.9822,17.210125,19.0588,18.67981,2606.6748,0,1.1571429,0.7074436,0.8572594,3
32345308449,17.056,17.132898,19.2944,19.045683,2609.3518,0,1.1571429,0.7074436,0.8572594,3
32345811945,17.2118,17.115513,19.1208,19.14335,2612.0417,0,1.1571429,0.7123232,0.8572594,3
32346302822,17.1544,17.127329,19.0712,19.044361,2614.6296,0,1.1571429,0.7123232,0.8572594,3
32346805910,17.2938,17.144331,18.9224,18.994886,2617.2805,0,1.1571429,0.71790683,0.8572594,3
32347309369,17.326601,17.170874,18.848,18.882517,2619.9106,0,1.1571429,0.71790683,0.8572594,3
32347812454,17.2036,17.19203,18.7612,18.820763,2622.5347,0,1.1571429,0.7108283,0.8572594,3
32348315531,17.056,17.210388,18.91,18.804586,2625.1592,0,1.1571429,0.7108283,0.8572594,3
32348819218,17.2364,17.237854,18.4884,18.754839,2627.7827,0,1.1571429,0.7109407,0.8572594,3
32349322178,17.3594,17.285147,18.3892,18.512014,2630.341,0,1.1571429,0.7109407,0.8572594,3
32349813146,17.1626,17.275253,19.021599,18.570488,2632.8738,0,1.1571429,0.70540726,0.85515225,3
32350324404,16.8838,17.284578,18.736399,18.655111,2635.5322,0,1.1571429,0.70540726,0.85515225,3
32350827383,16.9002,17.191975,19.5548,19.074902,2638.2312,0,1.1571429,0.7151742,0.85515225,3
32351329921,16.8346,17.152851,18.7488,19.304644,2640.9546,0,1.1571429,0.7151742,0.85515225,3
32351833193,16.7034,17.173502,18.7612,19.160645,2643.6187,0,1.1571429,0.7109537,0.85542417,3
32352324781,17.3184,17.120453,19.3068,19.35754,2646.2795,0,1.1571429,0.7109537,0.85542417,3
32352827494,17.507,17.248713,17.930399,18.761118,2648.8496,0,1.1571429,0.7135875,0.85542417,3
32353330978,17.507,17.293833,18.8232,18.539717,2651.4102,0,1.1571429,0.7135875,0.85542417,3
32353833920,17.2118,17.223791,19.282,18.86305,2654.0737,0,1.1571429,0.71976334,0.85474443,3
32354325562,17.63,17.229855,18.848,18.856693,2656.653,0,1.1571429,0.71976334,0.85474443,3
32354828402,16.8756,17.215826,18.947199,18.843964,2659.2812,0,1.1571429,0.7079436,0.8572594,3
32355331623,17.4824,17.210224,18.6496,18.88848,2661.9302,0,1.1571429,0.7079436,0.8572594,3
32355834786,16.9166,17.132269,19.827599,19.076576,2664.6052,0,1.1571429,0.71571374,0.8572594,3
32356338479,17.6464,17.116058,19.5176,19.346321,2667.3408,0,1.1571429,0.71571374,0.8572594,3
32356841559,17.63,17.142366,19.034,19.223778,2670.018,0,1.1571429,0.70659924,0.8572594,3
32357332313,17.277401,17.153816,19.2448,19.155827,2672.6199,0,1.1571429,0.70659924,0.8572594,3
32357835553,17.2118,17.176825,18.91,19.107742,2675.2874,0,1.1571429,0.7116641,0.8572594,3
32358338804,17.1134,17.196348,19.034,19.01372,2677.934,0,1.1571429,0.7116641,0.8572594,3
32358841812,16.9904,17.178661,19.2448,19.153755,2680.6235,0,1.1571429,0.70988035,0.85515225,3
32359341133,17.5234,17.203447,18.6124,19.069063,2683.268,0,1.1571429,0.70988035,0.85515225,3
32359844429,17.2282,17.238,18.7612,18.81306,2685.8708,0,1.1571429,0.70988035,0.85515225,3
32361844366,17.8842,17.29075,19.034,18.783583,2696.3901,0,1.1571429,0.690715,0.85542417,3
32362347567,17.1626,17.238134,19.170399,19.008177,2699.0698,0,1.1571429,0.690715,0.85542417,3
32362850778,17.343,17.262499,18.662,18.946142,2701.7175,0,1.1571429,0.71381116,0.85542417,3
32363354066,17.3348,17.29944,18.7488,18.792086,2704.3289,0,1.1571429,0.71381116,0.85542417,3
32363845252,18.0236,17.294838,19.096,18.888285,2706.913,0,1.1571429,0.70912945,0.8572594,3
32364348382,17.9334,17.299547,19.0712,18.975487,2709.5732,0,1.1571429,0.70912945,0.8572594,3
32364851647,17.6792,17.334465,18.4884,18.825977,2712.194,0,1.1571429,0.7144002,0.8572594,3
32365354872,18.1056,17.341335,18.897598,18.820953,2714.8193,0,1.1571429,0.7144002,0.8572594,3
32365857886,16.7198,17.291073,19.368801,18.861523,2717.4502,0,1.1571429,0.71354264,0.8572594,3
32366361106,17.343,17.256794,19.0588,19.102133,2720.1523,0,1.1571429,0.71354264,0.8572594,3
32366853152,17.3512,17.309769,18.4388,18.801184,2722.6943,0,1.1571429,0.70878804,0.8572594,3
32367355568,17.589,17.349562,18.8108,18.705801,2725.291,0,1.1571429,0.70878804,0.8572594,3
32367858869,17.326601,17.359428,18.7612,18.735844,2727.914,0,1.1571429,0.71490526,0.85515225,3
32368361965,17.6874,17.345966,18.6372,18.720026,2730.5293,0,1.1571429,0.71490526,0.85515225,3
32368865162,17.0806,17.34948,18.4388,18.66775,2733.1333,0,1.1571429,0.7104809,0.85515225,3
32369368789,16.9248,17.249844,19.666399,18.986269,2735.81,0,1.1571429,0.7104809,0.85515225,3
32369859752,16.9412,17.215988,19.22,19.250374,2738.468,0,1.1571429,0.7142751,0.85542417,3
32370362727,16.9822,17.20432,18.8728,19.082897,2741.1208,0,1.1571429,0.7142751,0.85542417,3
32370865198,17.6218,17.260252,18.6868,18.990683,2743.765,0,1.1571429,0.71145225,0.85542417,3
32371368461,17.22,17.26386,18.8728,18.87869,2746.392,0,1.1571429,0.71145225,0.85542417,3
32371871624,17.0478,17.207546,19.4928,19.119959,2749.0833,0,1.1571429,0.70732635,0.85542417,3
32372374756,16.4164,17.179375,18.9968,19.105442,2751.7537,0,1.1571429,0.70732635,0.85542417,3
32372877986,17.9334,17.172842,19.6168,19.195171,2754.4514,0,1.1571429,0.71795505,0.85474443,3
32373381134,16.3918,17.174076,19.7284,19.25558,2757.1438,0,1.1571429,0.71795505,0.85474443,3
32373872403,17.1462,17.107979,19.542398,19.499973,2759.8374,0,1.1571429,0.7084804,0.8572594,3
32374375554,17.1462,17.156664,18.4388,19.145424,2762.485,0,1.1571429,0.7084804,0.8572594,3
32374878718,16.7362,17.178673,18.8604,19.00665,2765.1226,0,1.1571429,0.71833503,0.8572594,3
32375382374,17.1626,17.18802,18.8852,19.052212,2767.7954,0,1.1571429,0.71833503,0.8572594,3
32375885652,17.1872,17.237925,18.9224,18.897917,2770.4197,0,1.1571429,0.71069646,0.8572594,3
32376388941,17.0806,17.235971,18.7736,18.936152,2773.0713,0,1.1571429,0.71069646,0.8572594,3
32376891508,17.1052,17.24823,18.6,18.890142,2775.705,0,1.1571429,0.71092314,0.8572594,3
32377383335,16.9248,17.223083,19.269598,18.95572,2778.2925,0,1.1571429,0.71092314,0.8572594,3
32377886306,17.0642,17.153452,19.393599,19.299814,2781.025,0,1.1571429,0.70890296,0.85515225,3
32378389025,17.4086,17.187647,18.587599,19.109015,2783.6807,0,1.1571429,0.70890296,0.85515225,3
32378892372,18.0154,17.238522,18.6,18.900715,2786.301,0,1.1571429,0.7098061,0.85515225,3
32379395574,18.0072,17.167768,19.7408,19.089811,2788.9773,0,1.1571429,0.7098061,0.85515225,3
32379898739,16.8264,17.054703,19.6292,19.50368,2791.7437,0,1.1571429,0.70891225,0.85542417,3
32380389936,17.1134,17.092295,18.934801,19.273605,2794.3562,0,1.1571429,0.70891225,0.85542417,3
32380893144,16.6706,17.029497,19.84,19.357841,2797.0613,0,1.1571429,0.7115141,0.85542417,3
32381404343,16.8182,16.994505,19.84,19.586918,2799.8687,0,1.1571429,0.7115141,0.85542417,3
32381895538,16.9166,16.976538,19.53,19.653662,2802.5593,0,1.1571429,0.71621513,0.85474443,3
32382398731,17.056,17.004238,18.947199,19.509111,2805.2798,0,1.1571429,0.71621513,0.85474443,3
32382902060,16.9494,17.074446,19.108398,19.118885,2807.91,0,1.1571429,0.71331716,0.8572594,3
32383405115,16.8182,17.062325,19.2448,19.288832,2810.6199,0,1.1571429,0.71331716,0.8572594,3
32383896394,17.2036,16.977768,20.2864,19.809036,2813.3738,0,1.1571429,0.70902264,0.8572594,3
32384399960,16.4492,16.967623,19.170399,19.796988,2816.1506,0,1.1571429,0.70902264,0.8572594,3
32384902763,17.056,17.02183,19.7532,19.732058,2818.898,0,1.1571429,0.7198955,0.8572594,3
32385405935,17.1462,17.021395,19.0836,19.637373,2821.6406,0,1.1571429,0.7198955,0.8572594,3
32385905136,17.2938,17.148605,18.29,18.968805,2824.2092,0,1.1571429,0.71039486,0.8572594,3
32386408443,17.2692,17.208447,18.674398,18.741802,2826.8018,0,1.1571429,0.71039486,0.8572594,3
32386899602,17.5972,17.282103,17.9428,18.503052,2829.3086,0,1.1571429,0.70378023,0.85515225,3
32387402771,17.2446,17.34315,18.3148,18.21892,2831.821,0,1.1571429,0.70378023,0.85515225,3
32387906036,16.7034,17.243214,19.7532,18.7231,2834.4775,0,1.1571429,0.71310693,0.85515225,3
32388409132,16.81,17.099373,20.199598,19.438599,2837.2634,0,1.1571429,0.71310693,0.85515225,3
32388912527,16.7444,16.951096,20.3112,19.898703,2840.0942,0,1.1571429,0.71005356,0.85542417,3
32389403618,16.564,16.87768,20.0632,20.075207,2842.8508,0,1.1571429,0.71005356,0.85542417,3
32389906759,16.9166,16.799463,20.088,20.268688,2845.7034,0,1.1571429,0.7148362,0.85542417,3
32390409979,17.7694,16.959112,18.414,19.537624,2848.3735,0,1.1571429,0.7148362,0.85542417,3
32391907550,17.2938,17.131666,18.6124,18.901033,2856.1177,0,1.1571429,0.6961858,0.8572594,3
32392410767,17.3348,17.224604,18.228,18.5328,2858.6738,0,1.1571429,0.6961858,0.8572594,3
32392913876,17.580801,17.257017,18.662,18.444923,2861.2395,0,1.1571429,0.716208,0.8572594,3
32393417704,17.2364,17.258139,18.6,18.56634,2863.851,0,1.1571429,0.716208,0.8572594,3
32393920582,17.2118,17.265993,18.5628,18.514484,2866.4312,0,1.1571429,0.7154122,0.8572594,3
32394420117,17.1872,17.25794,18.8108,18.637577,2869.0269,0,1.1571429,0.7154122,0.8572594,3
32394910633,17.1298,17.179796,19.2076,18.97617,2871.6445,0,1.1571429,0.7115525,0.8572594,3
32395414041,17.4824,17.263102,18.066801,18.599665,2874.2173,0,1.1571429,0.7115525,0.8572594,3
32395917116,17.4414,17.32109,18.079199,18.310852,2876.7446,0,1.1571429,0.7098177,0.85515225,3
32396420585,16.81,17.302048,19.108398,18.344112,2879.3037,0,1.1571429,0.7098177,0.85515225,3
32396923665,17.015,17.183735,19.2944,18.94969,2882.013,0,1.1571429,0.71622837,0.85515225,3
32397414694,17.179,17.193022,18.8852,18.890224,2884.587,0,1.1571429,0.71622837,0.85515225,3
32397918363,17.22,17.167957,18.7736,18.939121,2887.2441,0,1.1571429,0.71197987,0.85542417,3
32398421120,17.1462,17.21073,18.5504,18.691633,2889.8306,0,1.1571429,0.71197987,0.85542417,3
32398924603,17.7366,17.262484,17.8932,18.504845,2892.4055,0,1.1571429,0.71560276,0.85542417,3
32399415758,17.0396,17.299335,18.7736,18.234215,2894.852,0,1.1571429,0.71560276,0.85542417,3
32399919233,17.138,17.233725,19.0712,18.615168,2897.4944,0,1.1571429,0.716275,0.85542417,3
32400422168,17.0478,17.193499,18.8604,18.779987,2900.1409,0,1.1571429,0.716275,0.85542417,3
32400929652,17.2118,17.182337,18.934801,18.832098,2902.8008,0,1.1571429,0.71714664,0.85474443,3
32401432411,17.3922,17.0877,19.282,19.256596,2905.5305,0,1.1571429,0.71714664,0.85474443,3
32401935488,17.548,17.22547,17.632801,18.569424,2908.0684,0,1.1571429,0.71130985,0.8572594,3
32402438781,17.6464,17.358309,17.372398,17.987125,2910.5234,0,1.1571429,0.71130985,0.8572594,3
32402942036,17.1052,17.347887,18.7612,18.023663,2913.03,0,1.1571429,0.71269196,0.8572594,3
32403445157,17.4332,17.296295,18.3768,18.39509,2915.6438,0,1.1571429,0.71269196,0.8572594,3
32403948310,17.5726,17.394659,17.372398,17.946907,2918.115,0,1.1571429,0.71211636,0.8572594,3
32404439786,17.671,17.483229,17.2732,17.621592,2920.4866,0,1.1571429,0.71211636,0.8572594,3
32404942760,17.4496,17.517149,17.7568,17.49893,2922.914,0,1.1571429,0.7156016,0.8572594,3
32405445965,17.7202,17.525652,17.4468,17.618101,2925.3928,0,1.1571429,0.7156016,0.8572594,3
32405953574,17.6218,17.57338,17.347599,17.388931,2927.8203,0,1.1571429,0.71405625,0.85515225,3
32406444312,17.261,17.475943,18.538,17.859098,2930.294,0,1.1571429,0.71405625,0.85515225,3
32406947561,17.6136,17.462679,17.7072,18.027716,2932.844,0,1.1571429,0.7144463,0.85515225,3
32407450709,17.3594,17.47897,17.8932,17.850384,2935.3171,0,1.1571429,0.7144463,0.85515225,3
32407954587,17.548,17.489254,18.042,17.817516,2937.8015,0,1.1571429,0.7239655,0.85542417,3
32408457634,17.589,17.464287,17.7568,17.966162,2940.3328,0,1.1571429,0.7239655,0.85542417,3
32408956392,17.4414,17.551424,17.5832,17.508022,2942.715,0,1.1571429,0.71062756,0.85542417,3
32409459665,17.7858,17.49926,17.930399,17.865854,2945.2458,0,1.1571429,0.71062756,0.85542417,3
32409962739,17.8432,17.54427,17.2732,17.68883,2947.7026,0,1.1571429,0.71194637,0.85474443,3
32410465994,17.8924,17.661285,16.5292,17.187695,2950.0615,0,1.1571429,0.71194637,0.85474443,3
32410969172,17.7612,17.654932,17.3972,17.163126,2952.4463,0,1.1571429,0.716177,0.8572594,3
32411468395,17.8924,17.691774,16.7524,17.106886,2954.819,0,1.1571429,0.716177,0.8572594,3
32411959666,18.2532,17.79876,15.847199,16.708998,2957.0652,0,1.1571429,0.71294034,0.8572594,3
32412462714,17.8842,17.880415,16.4424,16.334572,2959.3027,0,1.1571429,0.71294034,0.8572594,3
32412965927,17.22,17.838787,17.1368,16.5869,2961.6438,0,1.1571429,0.7223315,0.8572594,3
32413469160,17.7038,17.73415,17.645199,17.144194,2964.0945,0,1.1571429,0.7223315,0.8572594,3
32413972338,17.8022,17.738516,16.851599,17.100563,2966.4858,0,1.1571429,0.70969284,0.8572594,3
32414475610,17.9662,17.749485,16.9012,16.983484,2968.8455,0,1.1571429,0.70969284,0.8572594,3
32414966735,18.409,17.942347,15.0412,16.196047,2970.9883,0,1.1571429,0.7155142,0.85515225,3
32415469796,17.2036,17.866106,17.9924,16.420626,2973.274,0,1.1571429,0.7155142,0.85515225,3
32415973171,17.8924,17.796171,16.5912,16.970524,2975.7258,0,1.1571429,0.71935534,0.85515225,3
32416477644,17.7858,17.82148,16.5788,16.7685,2978.0562,0,1.1571429,0.71935534,0.85515225,3
32416980282,17.4988,17.792019,17.198801,16.787172,2980.3962,0,1.1571429,0.7038263,0.85542417,3
32417483375,17.712,17.728079,17.4468,17.143671,2982.8274,0,1.1571429,0.7038263,0.85542417,3
32417987140,18.0646,17.759617,16.7028,17.001064,2985.198,0,1.1571429,0.71472514,0.85542417,3
32418489901,18.491,17.867493,15.487599,16.532373,2987.4658,0,1.1571429,0.71472514,0.85542417,3
32418981025,18.491,18.065138,15.0164,15.671219,2989.5142,0,1.1571429,0.7117621,0.85542417,3
32419484731,18.2286,18.13676,15.599199,15.494154,2991.6567,0,1.1571429,0.7117621,0.85542417,3
32419988073,18.204,18.181988,15.413199,15.470046,2993.8196,0,1.1571429,0.7124213,0.8572594,3
32420490693,18.2614,18.209976,15.611599,15.475957,2995.9792,0,1.1571429,0.7124213,0.8572594,3
32420993893,18.2368,18.23949,15.5124,15.453089,2998.1375,0,1.1571429,0.7120378,0.8572594,3
32421497111,18.245,18.250938,15.376,15.433285,3000.2937,0,1.1571429,0.7120378,0.8572594,3
32422000430,17.5234,18.222626,16.306,15.484177,3002.4563,0,1.1571429,0.711519,0.8572594,3
32422491650,17.4004,17.970428,17.7568,16.656193,3004.8457,0,1.1571429,0.711519,0.8572594,3
32422994767,18.081,17.901804,16.4052,16.877502,3007.2446,0,1.1571429,0.7150893,0.8572594,3
32423498055,18.1958,17.977531,15.599199,16.333443,3009.4773,0,1.1571429,0.7150893,0.8572594,3
32424001443,17.2036,17.823185,17.9428,16.854319,3011.86,0,1.1571429,0.7122054,0.85515225,3
32424504389,16.851,17.720661,16.9632,17.19561,3014.3135,0,1.1571429,0.7122054,0.85515225,3
32425007521,18.7534,17.716,16.5416,17.197412,3016.7258,0,1.1571429,0.70597565,0.85515225,3
32425510812,23.468401,18.029337,11.2592,16.477276,3018.9868,0,1.1571429,0.70597565,0.85515225,3
32426013920,23.4028,19.91447,0.8928,8.35388,3019.3774,0,1.1571429,0.70163023,0.85542417,3
32426517359,23.2962,21.101816,1.426,4.3103247,3019.5554,0.21521813,1.1192886,0.70163023,0.85542417,3
32427012923,22.6894,21.7495,2.7652,3.062801,3019.8308,0.36395985,1.094542,0.68664724,0.85542417,3
32427515553,22.5254,22.045351,3.224,3.2987366,3020.315,0.4215179,1.085257,0.68664724,0.85542417,3
32428019988,21.7874,22.104977,5.27,3.8424065,3020.8914,0.41854435,1.0857328,0.6959852,0.85542417,3
32428524020,23.001,22.08209,4.0175996,4.8067465,3021.6726,0.3858114,1.0909984,0.6959852,0.85542417,3
32429022549,23.3126,22.534386,1.2772,3.0703976,3021.9382,0.5029312,1.0723897,0.7438603,0.85474443,3
21987142,23.771801,23.80166,0.21079999,0.30431664,1.6518501,0.85657316,1.0198647,0.6338904,0.80519307,0
22490346,23.6816,23.784628,0.35959998,0.25518346,1.6817954,0.86382586,1.0188413,0.6338904,0.80519307,0
22993549,23.5094,23.702694,1.0912,0.5365878,1.779062,0.84713656,1.0211993,0.7438263,0.8487629,0
23496838,23.575,23.636976,0.8928,0.7930322,1.9178141,0.8325582,1.0232681,0.7438263,0.8487629,0
23999938,23.5422,23.605694,0.806,0.8268229,2.0372472,0.8265777,1.0241191,0.7184708,0.8487629,0
24503538,23.5586,23.584625,0.8928,0.84709865,2.1575,0.8224874,1.0247022,0.7184708,0.8487629,0
25006775,23.5504,23.562395,0.97959995,0.91650355,2.2918394,0.8172551,1.0254488,0.7060423,0.85059816,0
25509620,23.5258,23.550585,0.95479995,0.92914027,2.4229398,0.8146625,1.0258192,0.7060423,0.85059816,0
26012777,23.5258,23.541418,0.9052,0.9407645,2.5558114,0.81253153,1.0261238,0.71100724,0.85059816,0
26515947,23.5258,23.535275,0.94240004,0.9441501,2.6883569,0.81109387,1.0263294,0.71100724,0.85059816,0
27019107,23.5258,23.531923,0.95479995,0.9438393,2.820406,0.8103562,1.0264349,0.70823497,0.85059816,0
27522384,23.5422,23.527435,0.94240004,0.9531052,2.9547625,0.8091784,1.0266035,0.70823497,0.85059816,0
28025902,23.5422,23.526222,0.992,0.95636857,3.0887277,0.80893,1.026639,0.708614,0.85059816,0
28529167,23.4766,23.52484,0.94240004,0.9603104,3.223301,0.80859,1.0266877,0.708614,0.85059816,0
29020053,23.5094,23.526823,0.95479995,0.9584455,3.3537061,0.8092409,1.0265945,0.71044475,0.848491,0
29523141,23.5094,23.525894,0.94240004,0.9544902,3.4865105,0.8089939,1.0266299,0.71044475,0.848491,0
30026317,23.4766,23.525507,0.9176,0.9553594,3.6205616,0.8088985,1.0266435,0.7019563,0.848491,0
30525921,23.657,23.525557,0.992,0.9601553,3.7533543,0.80892855,1.0266392,0.7019563,0.848491,0
31028784,23.5094,23.526222,0.992,0.95290816,3.886072,0.8091393,1.0266091,0.70106876,0.8487629,0
31532177,23.4438,23.527863,0.8804,0.94254476,4.017593,0.8096433,1.026537,0.70106876,0.8487629,0
32023418,23.5094,23.528154,0.97959995,0.95940083,4.1504745,0.80973536,1.0265237,0.71344316,0.8487629,0
32526448,23.534,23.526611,0.94240004,0.9565176,4.2840123,0.80927044,1.0265902,0.71344316,0.8487629,0
33029762,23.5258,23.52744,0.9672,0.95573646,4.417463,0.80952364,1.0265541,0.7046251,0.8487629,0
33532781,23.5996,23.526073,0.992,0.9658774,4.553636,0.8091102,1.0266132,0.7046251,0.8487629,0
34036458,23.5914,23.523708,1.0043999,0.9656289,4.6883492,0.80839497,1.0267156,0.7132369,0.8480832,0
34539694,23.5668,23.526617,0.992,0.9543314,4.820246,0.80927664,1.0265894,0.7132369,0.8480832,0
35030400,23.5504,23.526237,1.0043999,0.9561852,4.9508786,0.8091622,1.0266058,0.70237327,0.85059816,0
35542599,23.4438,23.527088,1.0043999,0.9545464,5.086563,0.80942017,1.0265689,0.70237327,0.85059816,0
36032752,23.5914,23.522627,1.0416,0.9753716,5.221358,0.80806834,1.0267624,0.7124493,0.85059816,0
37542448,23.4602,23.507011,0.95479995,0.9874644,5.634266,0.8033362,1.0274403,0.7124493,0.85059816,0
38042820,23.5012,23.50611,1.0416,1.0016778,5.7744336,0.803063,1.0274795,0.6873305,0.85059816,0
38545388,23.534,23.508535,1.0043999,1.0099933,5.916101,0.80379826,1.0273741,0.6873305,0.85059816,0
39044439,23.5832,23.51132,1.0788001,1.0069033,6.055237,0.80464226,1.0272532,0.71130204,0.848491,0
39547810,23.4028,23.509136,1.0043999,1.0205193,6.1993136,0.80397993,1.027348,0.71130204,0.848491,0
40050808,23.5258,23.511911,0.95479995,1.0089065,6.339272,0.8048211,1.0272275,0.7047224,0.848491,0
40553507,23.657,23.511963,1.0168,1.013053,6.480643,0.8048368,1.0272253,0.7047224,0.848491,0
41055983,23.4602,23.505651,0.94240004,1.0127963,6.621672,0.8029242,1.0274993,0.7125721,0.8487629,0
41549270,23.6406,23.508364,1.0663999,1.0203888,6.761965,0.8037458,1.0273817,0.7125721,0.8487629,0
42051934,23.329,23.50782,1.0168,1.0249858,6.9051666,0.8035813,1.0274051,0.71068263,0.8487629,0
42554463,23.5996,23.511604,1.0043999,1.0215336,7.0476527,0.8047281,1.0272409,0.71068263,0.8487629,0
43058460,23.4766,23.50899,1.0043999,1.0138638,7.1887345,0.80393606,1.0273544,0.69980997,0.8480832,0
43561799,23.5832,23.514912,1.0043999,0.9950459,7.3259907,0.8057304,1.0270971,0.69980997,0.8480832,0
44052755,23.4274,23.510408,1.0168,1.0175004,7.466944,0.8043657,1.0272927,0.7103899,0.85059816,0
44555973,23.4274,23.510328,1.054,1.027276,7.6117086,0.80434185,1.0272962,0.7103899,0.85059816,0
45059177,23.5258,23.51385,0.992,1.0295,7.75637,0.80540854,1.0271434,0.710512,0.85059816,0
45562439,23.493,23.508612,1.054,1.0329102,7.900896,0.8038216,1.0273707,0.710512,0.85059816,0
46065950,23.4438,23.506266,1.0416,1.0381408,8.046734,0.80311066,1.0274726,0.701663,0.85059816,0
46568813,23.4766,23.508379,0.992,1.0431825,8.193431,0.8037506,1.027381,0.701663,0.85059816,0
47072421,23.5586,23.506144,1.0663999,1.051744,8.340994,0.80307347,1.027478,0.7095815,0.85059816,0
47575563,23.4766,23.507465,1.0663999,1.0523446,8.488135,0.803474,1.0274205,0.7095815,0.85059816,0
48078549,23.4356,23.510294,1.0168,1.0486774,8.634038,0.80433136,1.0272976,0.70144904,0.848491,0
48569934,23.468401,23.510273,1.1035999,1.0504681,8.776972,0.8043247,1.0272986,0.70144904,0.848491,0
49073215,23.5258,23.509642,1.0043999,1.0483495,8.923285,0.8041335,1.027326,0.7153252,0.848491,0
49576043,23.5258,23.507584,1.0292,1.0463309,9.069026,0.8035098,1.0274154,0.7153252,0.848491,0
50079166,23.5914,23.509163,1.116,1.0374067,9.213243,0.8039885,1.0273468,0.6999192,0.8487629,0
50582411,23.5832,23.506115,1.0788001,1.0483826,9.360987,0.8030644,1.0274793,0.6999192,0.8487629,0
51073819,23.4766,23.507326,1.0416,1.0508507,9.504583,0.8034316,1.0274266,0.7069104,0.8487629,0
51577208,23.575,23.509577,1.0168,1.0384846,9.648474,0.80411345,1.0273288,0.7069104,0.8487629,0
52079939,23.5012,23.508432,0.992,1.0393949,9.793789,0.8037668,1.0273786,0.71159303,0.8487629,0
52583150,23.5504,23.508009,1.0663999,1.0330232,9.937291,0.8036385,1.0273969,0.71159303,0.8487629,0
53074806,23.4766,23.50219,1.0788001,1.0406512,10.079787,0.8018752,1.0276498,0.7061572,0.85059816,0
53578123,23.5586,23.504745,1.0788001,1.047182,10.226999,0.80264956,1.0275387,0.7061572,0.85059816,0
54080736,23.5586,23.508318,1.0912,1.0556008,10.374349,0.803732,1.0273836,0.70345604,0.85059816,0
54584450,23.4766,23.514471,1.116,1.0448434,10.519642,0.8055969,1.0271163,0.70345604,0.85059816,0
55087181,23.411,23.50975,1.054,1.060062,10.669855,0.8041664,1.0273213,0.70810974,0.85059816,0
55590380,23.5094,23.511276,1.054,1.0475062,10.815351,0.80462843,1.027255,0.70810974,0.85059816,0
56093533,23.4766,23.512592,1.0663999,1.0444411,10.960161,0.80502754,1.027198,0.7048235,0.85059816,0
56584807,23.468401,23.516409,1.0168,1.0400513,11.100669,0.8061839,1.0270323,0.7048235,0.85059816,0
57087934,23.4766,23.51231,1.054,1.0460399,11.247136,0.8049422,1.0272101,0.7086226,0.848491,0
57591190,23.5094,23.511318,1.0043999,1.0483079,11.393839,0.8046418,1.0272532,0.7086226,0.848491,0
58094431,23.5422,23.511429,1.054,1.0532392,11.541344,0.80467516,1.0272484,0.70310414,0.848491,0
58597543,23.4438,23.512255,1.0416,1.0454364,11.686079,0.804925,1.0272126,0.70310414,0.848491,0
59088812,23.4766,23.51261,1.0043999,1.0401148,11.826873,0.8050328,1.0271971,0.7074804,0.8487629,0
59592760,23.2962,23.480907,1.5252,1.1231992,11.98778,0.79542595,1.0285755,0.7074804,0.8487629,0
60096344,23.4766,23.473885,1.1904,1.1932011,12.165273,0.7932983,1.0288813,0.70924044,0.8487629,0
60598382,23.4438,23.467684,1.2028,1.186171,12.329884,0.7914191,1.0291516,0.70924044,0.8487629,0
61102772,23.4766,23.469442,1.1408,1.1785736,12.493578,0.7919517,1.0290749,0.6991692,0.8487629,0
61593530,23.5504,23.490587,1.1284,1.0858264,12.632389,0.79835945,1.0281543,0.6991692,0.8487629,0
62096866,23.5586,23.498144,1.0043999,1.0591013,12.777624,0.8006492,1.0278256,0.7034665,0.8480832,0
62600172,23.575,23.505344,1.0292,1.0399122,12.921181,0.80283123,1.0275127,0.7034665,0.8480832,0
63103628,23.1322,23.43884,1.5871999,1.2993423,13.122236,0.78957516,1.0294168,0.70521796,0.85059816,0
63606753,23.2306,23.405191,1.5375999,1.4465442,13.339938,0.78593785,1.0299406,0.70521796,0.85059816,0
64109961,23.5258,23.38707,1.4755999,1.5213791,13.56008,0.78426796,1.0301812,0.7053683,0.85059816,0
64612755,23.009201,23.41921,1.2772,1.2924199,13.714387,0.7902327,1.0293221,0.7053683,0.85059816,0
65104388,22.7468,23.234758,2.7528,2.0155122,14.055763,0.7484942,1.035363,0.7060529,0.85059816,0
65607528,22.3286,23.008854,3.7696002,2.8221464,14.526122,0.6997352,1.0425102,0.7060529,0.85059816,0
66110610,21.2134,22.644196,6.2496,4.1234627,15.211369,0.61698157,1.0548688,0.69896305,0.8507341,0
66613512,21.8202,22.186682,7.1052003,5.7270727,16.17618,0.5072246,1.0717196,0.69896305,0.8507341,0
67116760,20.705,21.778032,7.8492,6.8455405,17.23831,0.40721518,1.0875496,0.7096976,0.848491,0
67619967,21.2134,21.446396,8.866,7.6568975,18.38091,0.3262897,1.1007053,0.7096976,0.848491,0
68111214,20.459,21.064804,9.61,8.675971,19.661432,0.23047405,1.116699,0.69813794,0.848491,0
68614432,19.639,20.771778,9.6472,9.250684,21.014503,0.15615994,1.1294274,0.69813794,0.848491,0
69117562,19.0896,20.521025,10.6144,9.945387,22.464516,0.094340384,1.140239,0.69884187,0.8487629,1
69620780,19.3028,20.235285,11.9288,10.681411,24.018242,0.02190119,1.1531742,0.69884187,0.8487629,3
70111947,19.2126,19.885094,13.0696,11.617158,25.689854,0,1.1571429,0.7124379,0.8487629,3
70615956,19.0978,19.614008,13.0448,12.51482,27.538177,0,1.1571429,0.7124379,0.8487629,3
71119137,18.942,19.399786,13.0944,12.896454,29.380953,0,1.1571429,0.69992757,0.8480832,3
71622773,19.065,19.27587,13.1812,13.107071,31.237095,0,1.1571429,0.69992757,0.8480832,3
72125525,19.1306,19.166239,13.3176,13.188188,33.085217,0,1.1571429,0.706944,0.85059816,3
72628832,19.3274,19.253473,12.4372,12.674653,34.805225,0,1.1571429,0.706944,0.85059816,3
73119928,19.5652,19.301575,12.3132,12.535076,36.501667,0,1.1571429,0.7154188,0.8572594,3
73623533,18.6878,19.263763,12.896,12.6065645,38.26283,0,1.1571429,0.7154188,0.8572594,3
74126259,19.3438,19.262424,12.524,12.632328,40.03371,0,1.1571429,0.70697856,0.8572594,3
74629568,19.9998,19.322826,12.09,12.384829,41.743576,0,1.1571429,0.70697856,0.8572594,3
75120770,19.1388,19.286222,12.7596,12.496581,43.452168,0,1.1571429,0.71061087,0.8572594,3
75623368,19.2618,19.23384,13.0696,12.768768,45.2589,0,1.1571429,0.71061087,0.8572594,3
76124333,19.311,19.195934,13.131599,12.92929,47.074818,0,1.1571429,0.70781803,0.85515225,3
76627171,18.696,19.077198,14.1732,13.327972,48.96028,0,1.1571429,0.70781803,0.85515225,3
77130321,18.6714,18.998354,13.788799,13.534987,50.875805,0,1.1571429,0.7091106,0.85515225,3
77633532,18.573,18.79901,15.078401,14.154969,52.906494,0,1.1571429,0.7091106,0.85515225,3
78136642,18.1138,18.680895,14.6692,14.517052,54.978428,0,1.1571429,0.71248585,0.85542417,3
78640473,18.4172,18.577799,15.128,14.748491,57.06306,0,1.1571429,0.71248585,0.85542417,3
79143031,18.4008,18.506756,15.066,14.8966465,59.158836,0,1.1571429,0.7081046,0.85542417,3
79646595,18.4746,18.45897,15.2148,14.971587,61.258186,0,1.1571429,0.7081046,0.85542417,3
80149766,18.138401,18.381496,15.376,15.174854,63.397823,0,1.1571429,0.7077757,0.85542417,3
80640744,18.081,18.332245,15.4752,15.347183,65.507095,0,1.1571429,0.7077757,0.85542417,3
81648059,17.4906,18.11164,17.6204,16.003637,69.94438,0,1.1571429,0.7077757,0.85542417,3
82151159,17.7448,18.000095,16.5912,16.518557,72.317986,0,1.1571429,0.6880311,0.8572594,3
82654360,17.4906,17.89326,17.1492,16.722391,74.670334,0,1.1571429,0.6880311,0.8572594,3
83157529,17.3758,17.735512,17.9552,17.311144,77.14386,0,1.1571429,0.7123161,0.8572594,3
83660738,17.2036,17.613205,17.98,17.697058,79.65649,0,1.1571429,0.7123161,0.8572594,3
84163933,17.1626,17.50831,18.3892,17.94551,82.18664,0,1.1571429,0.7152548,0.8572594,3
84667197,17.138,17.374075,18.8108,18.36134,84.79289,0,1.1571429,0.7152548,0.8572594,3
85158339,17.1298,17.260864,19.021599,18.666079,87.369286,0,1.1571429,0.7099607,0.85515225,3
85661615,16.974,17.202888,18.934801,18.831903,90.021,0,1.1571429,0.7099607,0.85515225,3
86164713,17.326601,17.179066,18.8728,18.858553,92.659935,0,1.1571429,0.7142682,0.85515225,3
86667979,17.056,17.146564,19.0836,18.916079,95.30789,0,1.1571429,0.7142682,0.85515225,3
87172538,17.1052,17.146326,18.9224,18.933426,97.96486,0,1.1571429,0.71029544,0.85515225,3
87675165,17.302,17.133076,18.724,18.865967,100.5909,0,1.1571429,0.71029544,0.85515225,3
88166299,17.2528,17.205809,19.034,18.546719,103.0778,0,1.1571429,0.71042097,0.85542417,3
88670029,16.7526,17.12577,19.4432,18.90276,105.75463,0,1.1571429,0.71042097,0.85542417,3
89172967,16.9822,17.102423,19.0588,19.122753,108.454956,0,1.1571429,0.7089977,0.85542417,3
89675931,17.0642,17.120445,18.9224,19.034378,111.106415,0,1.1571429,0.7089977,0.85542417,3
90166998,17.0806,17.116135,18.9844,19.010012,113.69578,0,1.1571429,0.70781744,0.85474443,3
90670756,17.9498,17.220482,17.794,18.639359,116.28634,0,1.1571429,0.70781744,0.85474443,3
91173616,17.277401,17.29684,18.352,18.360554,118.81524,0,1.1571429,0.70445466,0.8572594,3
91676744,17.3184,17.331146,18.587599,18.41153,121.39182,0,1.1571429,0.70445466,0.8572594,3
92180962,17.6054,17.30367,18.9224,18.616737,124.0177,0,1.1571429,0.7152289,0.8572594,3
92683820,17.4742,17.333858,18.2776,18.555326,126.607666,0,1.1571429,0.7152289,0.8572594,3
93175138,17.8514,17.43162,17.434399,18.114853,129.04066,0,1.1571429,0.705958,0.8572594,3
93678375,17.261,17.531399,17.5336,17.775995,131.48875,0,1.1571429,0.705958,0.8572594,3
94181551,17.9826,17.57055,17.806398,17.798393,133.97842,0,1.1571429,0.70880854,0.8572594,3
94684768,17.2036,17.543785,18.2528,17.856255,136.4739,0,1.1571429,0.70880854,0.8572594,3
95188452,17.1626,17.488277,18.525599,18.200235,139.05615,0,1.1571429,0.71321034,0.85515225,3
95691162,17.712,17.532423,17.8312,18.166761,141.59612,0,1.1571429,0.71321034,0.85515225,3
96194391,18.2614,17.606047,17.5088,17.799402,144.04886,0,1.1571429,0.70755255,0.85515225,3
96698444,17.7284,17.63023,17.9056,17.737904,146.5215,0,1.1571429,0.70755255,0.85515225,3
97201589,17.6218,17.624434,17.8436,17.860289,149.03232,0,1.1571429,0.71146965,0.85542417,3
97692707,17.4004,17.611841,17.9924,17.89158,151.47375,0,1.1571429,0.71146965,0.85542417,3
98195906,16.9002,17.581663,18.538,18.199652,154.04659,0,1.1571429,0.7119645,0.85542417,3
98699397,17.0724,17.512318,18.9968,18.365677,156.63017,0,1.1571429,0.7119645,0.85542417,3
99198361,17.5726,17.500782,18.0544,18.45309,159.20532,0,1.1571429,0.70459336,0.85542417,3
99701553,17.2446,17.520716,18.959599,18.254868,161.73393,0,1.1571429,0.70459336,0.85542417,3
100205116,16.6706,17.383821,19.0092,18.79805,164.4239,0,1.1571429,0.7160405,0.8572594,3
100708189,17.0806,17.344011,19.468,18.961893,167.09265,0,1.1571429,0.7160405,0.8572594,3
101211104,16.9494,17.352543,18.934801,18.976822,169.75151,0,1.1571429,0.710405,0.8572594,3
101715107,16.523,17.245201,19.4432,19.29277,172.47974,0,1.1571429,0.710405,0.8572594,3
102218397,16.8346,17.1488,20.0508,19.621506,175.24437,0,1.1571429,0.7054373,0.8572594,3
102721517,16.8838,17.082975,19.84,19.809784,178.03418,0,1.1571429,0.7054373,0.8572594,3
103212843,16.8428,17.070179,19.5548,19.664856,180.70325,0,1.1571429,0.71302706,0.8572594,3
103715923,17.5972,17.123186,18.4884,19.39635,183.40034,0,1.1571429,0.71302706,0.8572594,3
104219159,16.5886,17.292078,18.6992,18.865389,185.97891,0,1.1571429,0.7119132,0.85515225,3
104722891,16.7034,17.226944,20.274,19.247591,188.69481,0,1.1571429,0.7119132,0.85515225,3
105214338,16.7444,17.072266,20.4476,19.803524,191.45226,0,1.1571429,0.7080203,0.85515225,3
105716841,17.1052,17.128984,19.2572,19.658672,194.19191,0,1.1571429,0.7080203,0.85515225,3
106220779,17.2282,17.13758,19.468,19.3548,196.86942,0,1.1571429,0.709904,0.85542417,3
106724434,17.0068,17.123676,19.368801,19.418545,199.59206,0,1.1571429,0.709904,0.85542417,3
108221595,17.4004,17.292307,19.344,18.666645,207.38531,0,1.1571429,0.7094314,0.85542417,3
108724819,16.7526,17.079132,20.2864,19.6559,210.23505,0,1.1571429,0.7094314,0.85542417,3
109227955,16.5722,17.076916,19.158,19.506847,212.95801,0,1.1571429,0.7154081,0.8572594,3
109730748,16.7854,17.10652,19.455599,19.45313,215.66747,0,1.1571429,0.7154081,0.8572594,3
110235594,17.056,17.154919,18.959599,19.31679,218.36868,0,1.1571429,0.7092364,0.8572594,3
110734387,16.9822,17.18398,19.0464,19.195728,221.01508,0,1.1571429,0.7092364,0.8572594,3
111238323,16.7198,17.241577,18.6248,18.947124,223.64565,0,1.1571429,0.71192646,0.8572594,3
111741204,16.9576,17.243477,19.0712,18.946323,226.28876,0,1.1571429,0.71192646,0.8572594,3
112231993,17.1544,17.223433,19.381199,19.191324,228.92871,0,1.1571429,0.71383005,0.8572594,3
112735377,17.4086,17.214079,19.1208,19.241022,231.63184,0,1.1571429,0.71383005,0.8572594,3
113238609,16.4082,17.207527,19.1828,19.206158,234.30849,0,1.1571429,0.701678,0.8572594,3
113742397,16.605,17.069841,20.0756,19.576208,237.07956,0,1.1571429,0.701678,0.8572594,3
114245588,17.5726,17.027317,19.6416,19.766386,239.8679,0,1.1571429,0.7047262,0.85515225,3
114745129,17.0724,17.031914,19.5548,19.590364,242.56767,0,1.1571429,0.7047262,0.85515225,3
115244168,17.0724,17.024109,19.7904,19.60857,245.28534,0,1.1571429,0.71426076,0.85515225,3
115747003,17.1626,17.017199,19.5796,19.635555,248.03262,0,1.1571429,0.71426076,0.85515225,3
116250391,16.646,17.09311,19.108398,19.320168,250.70377,0,1.1571429,0.7081605,0.85542417,3
116753557,17.6792,17.014591,19.9392,19.419588,253.42422,0,1.1571429,0.7081605,0.85542417,3
117245442,17.8022,16.954008,20.2864,19.83093,256.17258,0,1.1571429,0.71156764,0.85542417,3
117756699,17.3512,16.994648,18.835598,19.552448,258.93463,0,1.1571429,0.71156764,0.85542417,3
118247829,16.7854,17.059202,19.034,19.191753,261.51196,0,1.1571429,0.7195889,0.85474443,3
118751137,17.097,17.107002,18.972,19.06379,264.16376,0,1.1571429,0.7195889,0.85474443,3
119262309,17.2446,17.16125,19.034,19.005781,266.85675,0,1.1571429,0.70540535,0.8572594,3
119764721,16.7034,17.114645,19.5052,19.21822,269.55508,0,1.1571429,0.70540535,0.8572594,3
120257592,16.8428,17.070576,19.802801,19.53223,272.2605,0,1.1571429,0.71132183,0.8572594,3
120760765,17.3676,17.06952,19.344,19.610237,275.01398,0,1.1571429,0.71132183,0.8572594,3
121259947,16.605,16.991095,19.802801,19.744822,277.76044,0,1.1571429,0.7110506,0.8572594,3
121763798,17.4824,17.007952,19.5548,19.710213,280.5178,0,1.1571429,0.7110506,0.8572594,3
122266468,16.974,17.028698,19.1456,19.431198,283.20468,0,1.1571429,0.70489717,0.8572594,3
122769518,16.8346,17.03454,19.158,19.284845,285.8831,0,1.1571429,0.70489717,0.8572594,3
123260713,16.9248,17.072212,19.0464,19.268648,288.5114,0,1.1571429,0.71209717,0.85515225,3
123764691,17.0396,17.059696,19.0588,19.197897,291.19257,0,1.1571429,0.71209717,0.85515225,3
124268211,16.9412,17.09648,18.972,19.142485,293.86426,0,1.1571429,0.7089082,0.85515225,3
124771364,16.514801,17.094385,19.1332,19.166979,296.54346,0,1.1571429,0.7089082,0.85515225,3
125278388,17.0396,17.096495,18.934801,19.164816,299.2474,0,1.1571429,0.70169187,0.85542417,3
125769947,17.999,17.127007,18.9844,18.9857,301.821,0,1.1571429,0.70169187,0.85542417,3
126272984,16.9248,17.126974,19.269598,19.070036,304.4894,0,1.1571429,0.7135276,0.85542417,3
126776840,16.8674,17.054096,19.3564,19.275496,307.2057,0,1.1571429,0.7135276,0.85542417,3
127279965,18.5402,17.075354,19.3564,19.222603,309.8899,0,1.1571429,0.71361786,0.85542417,3
127771526,16.5886,17.027735,19.716,19.294458,312.52463,0,1.1571429,0.71361786,0.85542417,3
128274425,16.7526,16.958105,19.7284,19.655062,315.30856,0,1.1571429,0.70899236,0.8572594,3
128774378,17.277401,16.94475,19.406,19.581774,318.02383,0,1.1571429,0.70899236,0.8572594,3
129280277,17.6546,17.014977,19.2448,19.329636,320.712,0,1.1571429,0.7029726,0.8572594,3
129785121,17.9498,17.03755,19.654,19.241274,323.39825,0,1.1571429,0.7029726,0.8572594,3
130287952,16.3262,16.962366,20.0632,19.664036,326.17984,0,1.1571429,0.7157948,0.8572594,3
130791393,17.343,17.008608,18.4884,19.512693,328.9109,0,1.1571429,0.7157948,0.8572594,3
131282404,17.056,17.147154,18.240398,18.730007,331.38547,0,1.1571429,0.70251286,0.8572594,3
131785617,16.9166,17.136541,19.0464,18.75767,334.00113,0,1.1571429,0.70251286,0.8572594,3
132289557,17.1954,17.115648,18.8852,18.871998,336.65848,0,1.1571429,0.7076356,0.85515225,3
132792680,17.63,17.124302,18.959599,18.88778,339.2987,0,1.1571429,0.7076356,0.85515225,3
133295892,17.261,17.118624,19.108398,18.91577,341.9442,0,1.1571429,0.7151075,0.85515225,3
133799219,16.7772,17.051023,19.4928,19.13972,344.63953,0,1.1571429,0.7151075,0.85515225,3
134302400,17.0396,17.037012,18.972,19.257547,347.34738,0,1.1571429,0.70436597,0.85542417,3
134806763,16.4164,16.92113,20.15,19.562487,350.11002,0,1.1571429,0.70436597,0.85542417,3
135309810,16.3918,16.801367,20.6088,20.115223,352.97498,0,1.1571429,0.709541,0.85542417,3
135812740,16.9822,16.77529,19.8648,20.191061,355.81134,0,1.1571429,0.709541,0.85542417,3
136304357,16.9248,16.808662,19.2572,19.778479,358.47546,0,1.1571429,0.70973265,0.85542417,3
136807367,18.089201,16.926,19.0092,19.363422,361.1408,0,1.1571429,0.70973265,0.85542417,3
137306744,17.2282,17.075153,18.029598,18.802687,363.70084,0,1.1571429,0.70368665,0.8572594,3
137810396,17.0642,17.137747,18.3768,18.500942,366.25452,0,1.1571429,0.70368665,0.8572594,3
138313531,17.1298,17.104212,19.344,18.731108,368.88748,0,1.1571429,0.71420443,0.8572594,3
138816716,16.974,17.014723,19.5548,19.230904,371.62656,0,1.1571429,0.71420443,0.8572594,3
139320513,17.0314,17.015772,18.972,19.175577,374.3103,0,1.1571429,0.71543264,0.8572594,3
139811096,17.0396,17.07529,18.463598,18.837538,376.8464,0,1.1571429,0.71543264,0.8572594,3
140315120,16.7444,17.053661,19.381199,18.900908,379.4897,0,1.1571429,0.7045012,0.8572594,3
140818403,16.5066,16.90029,20.236801,19.512285,382.2743,0,1.1571429,0.7045012,0.8572594,3
141325611,16.523,16.775234,20.336,19.988766,385.1406,0,1.1571429,0.70494574,0.8572594,3
141816611,16.8674,16.764524,19.5796,19.956345,387.8672,0,1.1571429,0.70494574,0.8572594,3
142319964,16.8674,16.817804,19.4804,19.597712,390.5698,0,1.1571429,0.7147995,0.85515225,3
142823963,16.7526,16.82039,19.4928,19.547222,393.30066,0,1.1571429,0.7147995,0.85515225,3
143327138,16.7444,16.836397,19.5176,19.480331,396.0165,0,1.1571429,0.7055012,0.85515225,3
143818422,16.5722,16.769266,20.236801,19.719988,398.72644,0,1.1571429,0.7055012,0.85515225,3
144321523,16.5558,16.677319,20.249199,20.078646,401.57016,0,1.1571429,0.70593154,0.85542417,3
144825334,17.179,16.781368,18.6992,19.660278,404.2949,0,1.1571429,0.70593154,0.85542417,3
145328751,16.9658,16.891281,18.8852,19.116705,406.90836,0,1.1571429,0.7188317,0.85542417,3
145831976,16.7444,16.86839,19.592001,19.259201,409.60825,0,1.1571429,0.7188317,0.85542417,3
146335135,16.3262,16.756714,20.5468,19.733715,412.40564,0,1.1571429,0.7105304,0.85474443,3
146826529,16.605,16.674595,19.9516,20.156954,415.20914,0,1.1571429,0.7105304,0.85474443,3
147328678,17.0068,16.75037,19.2448,19.766127,417.93335,0,1.1571429,0.7085772,0.8572594,3
147833458,17.0478,16.795767,19.282,19.546013,420.64792,0,1.1571429,0.7085772,0.8572594,3
148337109,17.2364,16.91612,18.4512,19.099262,423.2813,0,1.1571429,0.71396506,0.8572594,3
148839916,17.0068,16.999886,18.7488,18.734085,425.85696,0,1.1571429,0.71396506,0.8572594,3
149331155,17.097,16.98885,18.9224,18.893497,428.44946,0,1.1571429,0.7124837,0.8572594,3
149834416,17.343,17.031261,18.476,18.77608,431.06805,0,1.1571429,0.7124837,0.8572594,3
150338649,17.277401,17.125072,18.0048,18.427982,433.6166,0,1.1571429,0.7027203,0.8572594,3
151847831,17.023201,17.020046,18.8108,18.94128,441.512,0,1.1571429,0.7027203,0.8572594,3
152339947,17.2446,17.024853,18.8604,18.880363,444.08395,0,1.1571429,0.69630194,0.85515225,3
152843380,17.0724,17.043682,18.736399,18.792608,446.7024,0,1.1571429,0.69630194,0.85515225,3
153346603,16.9084,17.058842,18.959599,18.673021,449.29535,0,1.1571429,0.71068203,0.85542417,3
153849492,17.0724,17.011734,19.108398,18.972496,451.9761,0,1.1571429,0.71068203,0.85542417,3
154340848,17.0068,16.992563,19.021599,19.021755,454.57712,0,1.1571429,0.7141841,0.85542417,3
154844996,16.9576,16.96035,19.1208,19.1369,457.26764,0,1.1571429,0.7141841,0.85542417,3
155347837,17.0396,16.978989,18.6124,19.015924,459.91443,0,1.1571429,0.71522534,0.85542417,3
155851223,17.1216,16.998724,18.6992,18.89625,462.5451,0,1.1571429,0.71522534,0.85542417,3
156354440,16.8018,16.977388,19.393599,18.931475,465.1867,0,1.1571429,0.7044256,0.8572594,3
156846473,16.9494,16.973753,18.5628,19.012096,467.80478,0,1.1571429,0.7044256,0.8572594,3
157349595,17.2856,17.056059,18.29,18.623281,470.37015,0,1.1571429,0.7083789,0.8572594,3
157852709,17.0478,17.158342,17.9924,18.189068,472.87158,0,1.1571429,0.7083789,0.8572594,3
158355906,16.728,17.061918,19.269598,18.662771,475.51877,0,1.1571429,0.7184246,0.8572594,3
158859501,16.465601,16.920021,20.236801,19.27348,478.2694,0,1.1571429,0.7184246,0.8572594,3
159363412,16.687,16.78244,19.9516,19.849321,481.11218,0,1.1571429,0.69919187,0.8572594,3
159854400,17.2446,16.874807,18.4884,19.359138,483.714,0,1.1571429,0.69919187,0.8572594,3
160357417,17.1298,16.992357,18.364399,18.762154,486.27307,0,1.1571429,0.7092451,0.85515225,3
160860718,17.2282,17.029121,18.476,18.679235,488.8733,0,1.1571429,0.7092451,0.85515225,3
161365301,16.9658,17.036608,18.959599,18.656366,491.47946,0,1.1571429,0.7183695,0.85515225,3
161867930,16.9084,16.98168,19.1456,18.997927,494.16605,0,1.1571429,0.7183695,0.85515225,3
162359175,17.1462,17.050432,18.1908,18.743881,496.70755,0,1.1571429,0.705999,0.85542417,3
162859126,17.0314,17.099316,18.302399,18.45837,499.23993,0,1.1571429,0.705999,0.85542417,3
163362363,17.2118,17.148771,18.104,18.326616,501.79074,0,1.1571429,0.7085859,0.85542417,3
163865766,16.9084,17.1601,18.724,18.282955,504.33786,0,1.1571429,0.7085859,0.85542417,3
164369170,17.3348,17.136244,18.3272,18.51305,506.95688,0,1.1571429,0.7127911,0.85542417,3
164872314,17.1626,17.12382,18.6992,18.54521,509.54584,0,1.1571429,0.7127911,0.85542417,3
165375031,17.3512,17.142355,18.0544,18.51785,512.13556,0,1.1571429,0.7127035,0.85474443,3
165879115,17.4086,17.228333,17.9428,18.139858,514.63635,0,1.1571429,0.7127035,0.85474443,3
166378384,17.138,17.237347,18.414,18.111412,517.1408,0,1.1571429,0.7057396,0.8572594,3
166881557,16.851,17.120052,19.269598,18.612633,519.786,0,1.1571429,0.7057396,0.8572594,3
167385217,17.3184,17.117027,18.2652,18.709837,522.42444,0,1.1571429,0.70938754,0.8572594,3
167888766,17.302,17.196775,17.8808,18.237858,524.9302,0,1.1571429,0.70938754,0.8572594,3
30355006,23.7882,23.789564,0.19839999,0.23197784,2.1698432,0.85290724,1.0203828,0.64064837,0.80492115,0
30858930,23.6406,23.777342,0.3472,0.22207154,2.198811,0.8616181,1.0191525,0.71184677,0.8487629,0
31362189,23.5914,23.702332,0.9672,0.5107513,2.2929268,0.8470269,1.0212148,0.71184677,0.8487629,0
31865366,23.534,23.649885,0.9052,0.67250556,2.4026756,0.8364702,1.0227121,0.7110913,0.8487629,0
32369936,23.5422,23.614809,0.79359996,0.76921654,2.5219774,0.82934004,1.0237259,0.7110913,0.8487629,0
32873126,23.616,23.59003,0.79359996,0.7915959,2.6347375,0.8241258,1.0244685,0.7129447,0.8487629,0
33377135,23.493,23.521933,1.2895999,1.0836915,2.811232,0.8126698,1.026104,0.7129447,0.8487629,0
33879766,23.6652,23.4785,1.3392,1.1943495,2.9898179,0.8064051,1.0270005,0.7226855,0.8480832,0
34371403,23.3044,23.419744,1.9467999,1.352925,3.1850395,0.7957564,1.0285281,0.7226855,0.8480832,0
34875645,22.4434,23.124092,3.8068,2.4911537,3.6370487,0.7275329,1.0384234,0.712675,0.85059816,0
35378178,22.0662,22.796568,5.1707997,3.5838444,4.234565,0.652196,1.0495741,0.712675,0.85059816,0
35882153,20.8034,22.40739,6.9812,4.963187,5.0568647,0.561976,1.063247,0.7059499,0.85059816,0
36385348,21.0494,22.107456,6.6836,6.032853,6.014066,0.49447256,1.0737123,0.7059499,0.85059816,0
36889760,20.582,21.767797,8.531199,6.890911,7.049521,0.41221052,1.0867478,0.70386994,0.85059816,0
37392587,21.1724,21.410315,8.866,7.9088025,8.262197,0.3239718,1.1010867,0.70386994,0.85059816,0
37883792,20.3606,21.119457,9.548,8.636342,9.504498,0.25267226,1.1129524,0.71334934,0.85059816,0
38387867,19.9014,20.894516,9.8084,9.09711,10.825899,0.19806963,1.1222137,0.71334934,0.85059816,0
38891394,19.9506,20.511852,12.0404005,10.348323,12.382328,0.10016686,1.1392112,0.7143359,0.848491,1
39395141,18.7042,20.130383,12.896,11.379909,14.077979,0.000796855,1.156998,0.7143359,0.848491,3
39890644,19.0158,19.77505,13.354799,12.445185,15.902388,0,1.1571429,0.7054314,0.848491,3
40394198,19.2618,19.540108,13.243199,12.924721,17.760015,0,1.1571429,0.7054314,0.848491,3
40897445,19.1798,19.39521,13.2556,13.114717,19.612377,0,1.1571429,0.7101425,0.8487629,3
41400552,20.8362,19.31714,12.7844,13.263193,21.481031,0,1.1571429,0.7101425,0.8487629,3
41892785,19.4422,19.381447,12.772,12.58864,23.11901,0,1.1571429,0.7145942,0.8548804,3
42395786,19.0568,19.347616,12.3876,12.613476,24.889023,0,1.1571429,0.7145942,0.8548804,3
42899729,19.0896,19.333435,12.858799,12.646427,26.660694,0,1.1571429,0.7149612,0.85474443,3
43403653,19.6226,19.288324,12.4372,12.757539,28.46386,0,1.1571429,0.7149612,0.85474443,3
43907029,19.3356,19.319674,12.152,12.493181,30.1863,0,1.1571429,0.70350593,0.8572594,3
44398172,18.2778,19.284134,13.7392,12.477857,31.877186,0,1.1571429,0.70350593,0.8572594,3
44901320,19.557,19.175188,13.4168,13.113551,33.78528,0,1.1571429,0.7071385,0.8572594,3
45405726,18.3516,18.976357,14.7436,13.777813,35.769234,0,1.1571429,0.7071385,0.8572594,3
45909312,18.5894,18.795631,14.818,14.373864,37.84288,0,1.1571429,0.70655334,0.8572594,3
46412940,18.491,18.67318,14.9668,14.672474,39.924183,0,1.1571429,0.70655334,0.8572594,3
46915761,18.3844,18.614233,15.053599,14.851787,42.016876,0,1.1571429,0.7184435,0.8572594,3
47408186,18.7452,18.562265,15.165199,14.924328,44.065903,0,1.1571429,0.7184435,0.8572594,3
47910953,18.392601,18.482971,15.425599,15.160379,46.20495,0,1.1571429,0.71496916,0.85515225,3
48418108,18.1138,18.29982,16.070398,15.811496,48.491577,0,1.1571429,0.71496916,0.85515225,3
48922102,18.1548,18.255682,15.872,15.78489,50.701237,0,1.1571429,0.7103081,0.85515225,3
49413616,17.5562,18.097849,17.112,16.238245,52.954235,0,1.1571429,0.7103081,0.85515225,3
49917354,17.7694,17.918068,17.5088,16.898792,55.38424,0,1.1571429,0.71258825,0.85542417,3
50424521,17.5644,17.793936,17.5212,17.187298,57.83619,0,1.1571429,0.71258825,0.85542417,3
50928515,17.4414,17.668266,17.7444,17.468037,60.307545,0,1.1571429,0.7167649,0.85542417,3
51922822,16.9822,17.480879,18.364399,17.847702,65.23256,0,1.1571429,0.7167649,0.85542417,3
52426844,17.1544,17.371038,18.463598,18.21691,67.82099,0,1.1571429,0.7167649,0.85542417,3
52930160,16.9986,17.298763,18.7612,18.396229,70.40848,0,1.1571429,0.70551896,0.8572594,3
53434161,16.7198,17.185738,19.158,18.788656,73.0759,0,1.1571429,0.70551896,0.8572594,3
53937609,16.9084,17.092651,19.3192,19.046904,75.76687,0,1.1571429,0.71354645,0.8572594,3
54429363,16.7526,17.050694,18.7488,19.108807,78.3903,0,1.1571429,0.71354645,0.8572594,3
54932488,16.6214,17.009665,19.406,19.145605,81.06852,0,1.1571429,0.72216046,0.8572594,3
55435751,17.22,16.943018,19.4184,19.37105,83.80063,0,1.1571429,0.72216046,0.8572594,3
55939765,16.8018,16.905495,19.4928,19.393452,86.51677,0,1.1571429,0.7184646,0.8572594,3
56430948,16.8264,16.89513,19.6788,19.4108,89.16351,0,1.1571429,0.7184646,0.8572594,3
56934959,17.425,16.974413,17.930399,19.181402,91.84192,0,1.1571429,0.7144958,0.85515225,3
57438217,18.04,17.075453,18.5752,18.615845,94.375656,0,1.1571429,0.7144958,0.85515225,3
57942171,17.1544,17.09032,18.066801,18.62434,96.98833,0,1.1571429,0.7134933,0.85515225,3
58437980,17.0642,17.07893,19.034,18.622046,99.543106,0,1.1571429,0.7134933,0.85515225,3
58941747,17.2364,17.010197,19.1828,18.932583,102.22416,0,1.1571429,0.7164167,0.85542417,3
59445043,16.9412,17.008698,19.0588,18.989193,104.88038,0,1.1571429,0.7164167,0.85542417,3
59947801,16.9822,17.03379,18.7612,18.927637,107.52183,0,1.1571429,0.71385694,0.85542417,3
60439800,17.2692,17.072067,18.786,18.791298,110.07555,0,1.1571429,0.71385694,0.85542417,3
60943467,17.4086,17.132248,18.240398,18.617151,112.67019,0,1.1571429,0.70620275,0.85542417,3
61446862,17.7038,17.28464,17.211199,18.038448,115.14224,0,1.1571429,0.70620275,0.85542417,3
61946137,17.4414,17.340488,17.8932,17.76539,117.56926,0,1.1571429,0.7060956,0.85474443,3
62449277,17.4086,17.328323,17.8808,17.943623,120.095894,0,1.1571429,0.7060956,0.85474443,3
62942034,17.5644,17.398842,17.4592,17.698898,122.49728,0,1.1571429,0.70704144,0.8572594,3
63445106,17.507,17.443048,17.806398,17.656761,124.957596,0,1.1571429,0.70704144,0.8572594,3
63948532,17.277401,17.420424,17.8188,17.791422,127.45936,0,1.1571429,0.7153737,0.8572594,3
64451647,17.015,17.443375,17.657598,17.766602,129.94252,0,1.1571429,0.7153737,0.8572594,3
64955833,17.179,17.410244,18.302399,17.888325,132.45404,0,1.1571429,0.7217842,0.8572594,3
65447189,17.2118,17.323713,18.786,18.313063,134.99553,0,1.1571429,0.7217842,0.8572594,3
65950909,17.1708,17.295431,18.4884,18.456997,137.59627,0,1.1571429,0.7072661,0.8572594,3
66454149,17.2118,17.29813,18.302399,18.342842,140.15051,0,1.1571429,0.7072661,0.8572594,3
66957408,17.5234,17.28714,18.3272,18.379587,142.72427,0,1.1571429,0.7053671,0.85515225,3
67461328,17.384,17.3036,18.104,18.264433,145.27075,0,1.1571429,0.7053671,0.85515225,3
67964462,17.277401,17.316952,18.0172,18.214544,147.81091,0,1.1571429,0.7039091,0.85515225,3
68468645,17.302,17.347681,18.228,18.10334,150.3331,0,1.1571429,0.7039091,0.85515225,3
68971698,17.6464,17.305504,18.538,18.2754,152.90327,0,1.1571429,0.7147939,0.85542417,3
69463837,17.0642,17.257874,18.5504,18.481068,155.4502,0,1.1571429,0.7147939,0.85542417,3
69966804,17.2036,17.250862,18.4512,18.488297,158.03658,0,1.1571429,0.7143996,0.85542417,3
70470175,17.1298,17.229439,18.587599,18.541105,160.63391,0,1.1571429,0.7143996,0.85542417,3
70974105,17.179,17.20608,18.6992,18.595716,163.24124,0,1.1571429,0.7071258,0.85474443,3
71477872,16.9576,17.193253,18.736399,18.671057,165.86159,0,1.1571429,0.7071258,0.85474443,3
71981870,17.4578,17.201971,18.587599,18.701689,168.4864,0,1.1571429,0.71594894,0.8572594,3
72484767,16.7362,17.223793,18.513199,18.617235,171.07831,0,1.1571429,0.71594894,0.8572594,3
72988747,17.1052,17.201828,18.91,18.718822,173.70856,0,1.1571429,0.72070354,0.8572594,3
73487774,17.8678,17.188961,18.736399,18.862385,176.33827,0,1.1571429,0.72070354,0.8572594,3
73990812,17.8842,17.175629,19.2448,18.840597,178.96246,0,1.1571429,0.71477413,0.8572594,3
74494839,16.81,17.14889,19.381199,18.989273,181.63388,0,1.1571429,0.71477413,0.8572594,3
74998646,17.9006,17.160809,18.736399,19.019115,184.30786,0,1.1571429,0.70438075,0.8572594,3
75502166,16.8674,17.145468,19.0092,18.894617,186.9326,0,1.1571429,0.70438075,0.8572594,3
75993375,16.9248,17.163523,18.6496,18.909548,189.51886,0,1.1571429,0.7039213,0.85515225,3
76497798,17.7858,17.224518,18.463598,18.687384,192.11748,0,1.1571429,0.7039213,0.85515225,3
76997039,16.523,17.222048,19.034,18.598259,194.68341,0,1.1571429,0.71387327,0.85515225,3
78506928,16.974,17.29946,18.8728,18.496658,202.50626,0,1.1571429,0.71387327,0.85515225,3
79011327,16.9494,17.17655,19.468,19.103111,205.24254,0,1.1571429,0.7127695,0.85542417,3
79514104,17.261,17.211435,18.662,18.940683,207.87753,0,1.1571429,0.7127695,0.85542417,3
80006073,17.5234,17.276878,18.4512,18.639908,210.39415,0,1.1571429,0.7106663,0.85542417,3
80517748,16.933,17.298199,18.7612,18.585499,213.02396,0,1.1571429,0.7106663,0.85542417,3
81021314,17.3758,17.24849,19.3068,18.956018,215.70628,0,1.1571429,0.7109828,0.8572594,3
81524530,17.548,17.261848,18.786,18.985405,218.36992,0,1.1571429,0.7109828,0.8572594,3
82015732,16.9822,17.214602,19.5796,19.068754,220.97292,0,1.1571429,0.71185875,0.8572594,3
82519701,16.5968,17.104897,20.0632,19.389393,223.71602,0,1.1571429,0.71185875,0.8572594,3
83022943,16.5476,16.971746,20.15,19.774662,226.51999,0,1.1571429,0.71638024,0.8572594,3
83527596,17.4168,17.022085,19.1828,19.649763,229.26833,0,1.1571429,0.71638024,0.8572594,3
84018553,16.7198,17.037216,19.5176,19.517622,231.91379,0,1.1571429,0.7065464,0.8572594,3
84522196,16.7936,17.031101,19.2448,19.41858,234.62337,0,1.1571429,0.7065464,0.8572594,3
85025344,16.9658,17.001076,19.6292,19.480156,237.34895,0,1.1571429,0.7135396,0.85515225,3
85529723,17.343,17.014114,19.2448,19.473091,240.08598,0,1.1571429,0.7135396,0.85515225,3
86032640,16.933,17.045288,19.170399,19.32108,242.77202,0,1.1571429,0.7080545,0.85515225,3
86524604,17.0642,17.098927,19.158,19.269611,245.40172,0,1.1571429,0.7080545,0.85515225,3
87027796,16.933,17.147408,18.6868,19.039799,248.04442,0,1.1571429,0.7100421,0.85515225,3
87531359,17.2692,17.144379,19.1828,19.056927,250.70837,0,1.1571429,0.7100421,0.85515225,3
88034890,17.4414,17.098934,19.5672,19.331707,253.43866,0,1.1571429,0.7132871,0.85542417,3
88526111,17.2856,17.10039,19.3564,19.322126,256.07547,0,1.1571429,0.7132871,0.85542417,3
89030095,17.2364,17.095623,19.368801,19.379822,258.7921,0,1.1571429,0.71210074,0.85542417,3
89533438,16.1622,17.090271,18.934801,19.293098,261.4849,0,1.1571429,0.71210074,0.85542417,3
90037395,16.4984,16.91391,20.695599,19.974281,264.33868,0,1.1571429,0.71196604,0.85474443,3
90536444,17.1134,16.958778,19.1828,19.899544,267.1025,0,1.1571429,0.71196604,0.85474443,3
91028661,17.2446,17.044163,19.0712,19.401304,269.70218,0,1.1571429,0.710964,0.8572594,3
91531658,16.523,16.961596,19.8524,19.550253,272.4397,0,1.1571429,0.710964,0.8572594,3
92035855,16.6706,16.969103,19.4804,19.734316,275.22845,0,1.1571429,0.71409094,0.8572594,3
92539181,17.1134,16.954424,20.0136,19.785763,277.99554,0,1.1571429,0.71409094,0.8572594,3
93043352,17.056,16.867811,20.212,20.072374,280.83148,0,1.1571429,0.7115869,0.8572594,3
93534110,16.974,16.875145,19.368801,19.87556,283.5276,0,1.1571429,0.7115869,0.8572594,3
94037294,18.1302,17.019102,18.525599,19.25606,286.16354,0,1.1571429,0.7090932,0.8572594,3
94541295,16.8018,17.142778,18.2528,18.70541,288.72568,0,1.1571429,0.7090932,0.8572594,3
95040608,18.04,17.212019,19.2076,18.70841,291.3133,0,1.1571429,0.7121186,0.85515225,3
95544917,16.974,17.137009,19.778,19.16154,294.03876,0,1.1571429,0.7121186,0.85515225,3
